[{"_id":"52cdef7c4bab8bd675297d8a","name":"Wetpaint","category_code":"web","number_of_employees":47.0,"founded_year":2005.0,"total_money_raised":39800000,"offices":{"description":"","address1":"710 - 2nd Avenue","address2":"Suite 1100","zip_code":"98104","city":"Seattle","state_code":"WA","country_code":"USA","latitude":47.603122,"longitude":-122.333253},"city":"Seattle","place":{"type":"Point","coordinates":[-122.333253,47.603122]},"result":"success","latitude":47.603122,"longitude":-122.333253,"Last_Digit":"M","First_Digit":"3"},{"_id":"52cdef7c4bab8bd675297e0b","name":"Newsvine","category_code":"web","number_of_employees":8.0,"founded_year":2005.0,"total_money_raised":1250000,"offices":{"description":null,"address1":"101 Elliott Ave. West","address2":"Suite 120","zip_code":"98119","city":"Seattle","state_code":"WA","country_code":"USA","latitude":47.618599,"longitude":-122.358484},"city":"Seattle","place":{"type":"Point","coordinates":[-122.358484,47.618599]},"result":"success","latitude":47.618599,"longitude":-122.358484,"Last_Digit":"M","First_Digit":"1"},{"_id":"52cdef7c4bab8bd675297e11","name":"iLike","category_code":"games_video","number_of_employees":28.0,"founded_year":2002.0,"total_money_raised":16500000,"offices":{"description":null,"address1":"1605 Boylston Ave, Suite 202","address2":"","zip_code":"98122","city":"Seattle","state_code":"WA","country_code":"USA","latitude":47.615313,"longitude":-122.323408},"city":"Seattle","place":{"type":"Point","coordinates":[-122.323408,47.615313]},"result":"success","latitude":47.615313,"longitude":-122.323408,"Last_Digit":"M","First_Digit":"1"},{"_id":"52cdef7c4bab8bd675297e6d","name":"PayScale","category_code":"software","number_of_employees":130.0,"founded_year":1999.0,"total_money_raised":31100000,"offices":{"description":"","address1":"542 First Ave South","address2":"Suite 400","zip_code":"98104","city":"Seattle","state_code":"WA","country_code":"USA","latitude":47.5999337,"longitude":-122.3276962},"city":"Seattle","place":{"type":"Point","coordinates":[-122.3276962,47.5999337]},"result":"success","latitude":47.5999337,"longitude":-122.3276962,"Last_Digit":"M","First_Digit":"3"},{"_id":"52cdef7c4bab8bd675297e7b","name":"BuddyTV","category_code":"games_video","number_of_employees":20.0,"founded_year":2005.0,"total_money_raised":10600000,"offices":{"description":"Seattle Headquarters","address1":"190 Queen Anne Ave Suite 280","address2":"","zip_code":"98109","city":"Seattle","state_code":"WA","country_code":"USA","latitude":47.61968,"longitude":-122.356756},"city":"Seattle","place":{"type":"Point","coordinates":[-122.356756,47.61968]},"result":"success","latitude":47.61968,"longitude":-122.356756,"Last_Digit":"M","First_Digit":"1"},{"_id":"52cdef7c4bab8bd675297f07","name":"Shock Treatment Management","category_code":"web","number_of_employees":null,"founded_year":2004.0,"total_money_raised":4000000,"offices":{"description":null,"address1":"1601 2nd Avenue, Suite #1080","address2":null,"zip_code":"98101","city":"Seattle","state_code":"WA","country_code":"USA","latitude":47.610332,"longitude":-122.339859},"city":"Seattle","place":{"type":"Point","coordinates":[-122.339859,47.610332]},"result":"success","latitude":47.610332,"longitude":-122.339859,"Last_Digit":"M","First_Digit":"4"},{"_id":"52cdef7c4bab8bd675297f67","name":"EyeJot","category_code":"web","number_of_employees":5.0,"founded_year":2007.0,"total_money_raised":1150000,"offices":{"description":"","address1":"315 5th Ave South","address2":"Suite 800","zip_code":"98104","city":"Seattle","state_code":"WA","country_code":"USA","latitude":47.5999337,"longitude":-122.3276962},"city":"Seattle","place":{"type":"Point","coordinates":[-122.3276962,47.5999337]},"result":"success","latitude":47.5999337,"longitude":-122.3276962,"Last_Digit":"M","First_Digit":"1"},{"_id":"52cdef7c4bab8bd675297fae","name":"FlowPlay","category_code":"games_video","number_of_employees":30.0,"founded_year":2006.0,"total_money_raised":3970000,"offices":{"description":"","address1":"114 Alaskan Way South","address2":"Ste. 100","zip_code":"98104","city":"Seattle","state_code":"WA","country_code":"USA","latitude":47.6015315,"longitude":-122.335943},"city":"Seattle","place":{"type":"Point","coordinates":[-122.335943,47.6015315]},"result":"success","latitude":47.6015315,"longitude":-122.335943,"Last_Digit":"M","First_Digit":"3"},{"_id":"52cdef7c4bab8bd675298015","name":"DocuSign","category_code":"software","number_of_employees":null,"founded_year":2003.0,"total_money_raised":116000000,"offices":{"description":"","address1":"1301 Second Ave","address2":"Suite 2000","zip_code":"98101","city":"Seattle","state_code":"WA","country_code":"USA","latitude":47.603015,"longitude":-122.335668},"city":"Seattle","place":{"type":"Point","coordinates":[-122.335668,47.603015]},"result":"success","latitude":47.603015,"longitude":-122.335668,"Last_Digit":"M","First_Digit":"1"},{"_id":"52cdef7c4bab8bd675298047","name":"Treemo Labs","category_code":"mobile","number_of_employees":null,"founded_year":2005.0,"total_money_raised":2550000,"offices":{"description":"HQ","address1":"101 Yesler Way","address2":"Suite 207","zip_code":"98104","city":"Seattle","state_code":"WA","country_code":"USA","latitude":47.620716,"longitude":-122.347533},"city":"Seattle","place":{"type":"Point","coordinates":[-122.347533,47.620716]},"result":"success","latitude":47.620716,"longitude":-122.347533,"Last_Digit":"M","First_Digit":"2"},{"_id":"52cdef7c4bab8bd675298097","name":"Pelago","category_code":"mobile","number_of_employees":null,"founded_year":2005.0,"total_money_raised":22400000,"offices":{"description":"Pelago World Headquarters","address1":"1201 3rd Ave., Suite 800","address2":"","zip_code":"98101","city":"Seattle","state_code":"WA","country_code":"USA","latitude":47.607065,"longitude":-122.335373},"city":"Seattle","place":{"type":"Point","coordinates":[-122.335373,47.607065]},"result":"success","latitude":47.607065,"longitude":-122.335373,"Last_Digit":"M","First_Digit":"2"},{"_id":"52cdef7c4bab8bd6752980a2","name":"Faves","category_code":"web","number_of_employees":7.0,"founded_year":2004.0,"total_money_raised":1500000,"offices":{"description":null,"address1":"811 First Avenue","address2":"Suite 480","zip_code":"98104","city":"Seattle","state_code":"WA","country_code":"USA","latitude":47.603327,"longitude":-122.334983},"city":"Seattle","place":{"type":"Point","coordinates":[-122.334983,47.603327]},"result":"success","latitude":47.603327,"longitude":-122.334983,"Last_Digit":"M","First_Digit":"1"},{"_id":"52cdef7c4bab8bd6752980e2","name":"RealSelf","category_code":"web","number_of_employees":23.0,"founded_year":2006.0,"total_money_raised":1950000,"offices":{"description":null,"address1":null,"address2":null,"zip_code":null,"city":"Seattle","state_code":"WA","country_code":"USA","latitude":47.620716,"longitude":-122.347533},"city":"Seattle","place":{"type":"Point","coordinates":[-122.347533,47.620716]},"result":"success","latitude":47.620716,"longitude":-122.347533,"Last_Digit":"M","First_Digit":"1"},{"_id":"52cdef7c4bab8bd6752980f9","name":"Zoji","category_code":"web","number_of_employees":null,"founded_year":2004.0,"total_money_raised":1500000,"offices":{"description":null,"address1":null,"address2":null,"zip_code":null,"city":"Seattle","state_code":"WA","country_code":"USA","latitude":47.620716,"longitude":-122.347533},"city":"Seattle","place":{"type":"Point","coordinates":[-122.347533,47.620716]},"result":"success","latitude":47.620716,"longitude":-122.347533,"Last_Digit":"M","First_Digit":"1"},{"_id":"52cdef7c4bab8bd67529810d","name":"Hark","category_code":"web","number_of_employees":15.0,"founded_year":2007.0,"total_money_raised":5000000,"offices":{"description":"Hark Headquarters","address1":"1620 Broadway","address2":"Suite 209","zip_code":"98122","city":"Seattle","state_code":"WA","country_code":"USA","latitude":null,"longitude":null},"city":"Seattle","place":null,"result":"No office","latitude":"No coordinates","longitude":"No coordinates","Last_Digit":"M","First_Digit":"5"},{"_id":"52cdef7c4bab8bd675298137","name":"Jott","category_code":"web","number_of_employees":null,"founded_year":2006.0,"total_money_raised":5400000,"offices":{"description":"HQ","address1":"300 East Pike Street, Suite 2000","address2":"","zip_code":"98122","city":"Seattle","state_code":"WA","country_code":"USA","latitude":47.6139472,"longitude":-122.327807},"city":"Seattle","place":{"type":"Point","coordinates":[-122.327807,47.6139472]},"result":"success","latitude":47.6139472,"longitude":-122.327807,"Last_Digit":"M","First_Digit":"5"},{"_id":"52cdef7c4bab8bd6752981a1","name":"Delve Networks","category_code":"games_video","number_of_employees":null,"founded_year":2006.0,"total_money_raised":9650000,"offices":{"description":null,"address1":"206 1st Ave South","address2":null,"zip_code":"98104","city":"Seattle","state_code":"WA","country_code":"USA","latitude":47.600818,"longitude":-122.334117},"city":"Seattle","place":{"type":"Point","coordinates":[-122.334117,47.600818]},"result":"success","latitude":47.600818,"longitude":-122.334117,"Last_Digit":"M","First_Digit":"9"},{"_id":"52cdef7c4bab8bd675298246","name":"LiquidPlanner","category_code":"software","number_of_employees":30.0,"founded_year":2006.0,"total_money_raised":2200000,"offices":{"description":"","address1":"2324 Eastlake Ave. East, Suite 300","address2":"","zip_code":"98102","city":"Seattle","state_code":"WA","country_code":"USA","latitude":null,"longitude":null},"city":"Seattle","place":null,"result":"No office","latitude":"No coordinates","longitude":"No coordinates","Last_Digit":"M","First_Digit":"2"},{"_id":"52cdef7c4bab8bd67529826f","name":"TalentSpring","category_code":"web","number_of_employees":9.0,"founded_year":2006.0,"total_money_raised":2700000,"offices":{"description":"","address1":"2033 Sixth Avenue","address2":"Suite 331","zip_code":"98121","city":"Seattle","state_code":"WA","country_code":"USA","latitude":47.680496,"longitude":-122.120938},"city":"Seattle","place":{"type":"Point","coordinates":[-122.120938,47.680496]},"result":"success","latitude":47.680496,"longitude":-122.120938,"Last_Digit":"M","First_Digit":"2"},{"_id":"52cdef7c4bab8bd6752982c9","name":"Escapia","category_code":"software","number_of_employees":23.0,"founded_year":2000.0,"total_money_raised":3600000,"offices":{"description":null,"address1":"2101 4th Ave","address2":"STE 1800","zip_code":"98121","city":"Seattle","state_code":"WA","country_code":"USA","latitude":47.613896,"longitude":-122.3413},"city":"Seattle","place":{"type":"Point","coordinates":[-122.3413,47.613896]},"result":"success","latitude":47.613896,"longitude":-122.3413,"Last_Digit":"M","First_Digit":"3"},{"_id":"52cdef7c4bab8bd6752982e7","name":"Shelfari","category_code":"web","number_of_employees":11.0,"founded_year":2006.0,"total_money_raised":1000000,"offices":{"description":null,"address1":"","address2":"","zip_code":"","city":"Seattle","state_code":"WA","country_code":"USA","latitude":47.620716,"longitude":-122.347533},"city":"Seattle","place":{"type":"Point","coordinates":[-122.347533,47.620716]},"result":"success","latitude":47.620716,"longitude":-122.347533,"Last_Digit":"M","First_Digit":"1"},{"_id":"52cdef7c4bab8bd6752986df","name":"CarDomain Network","category_code":"web","number_of_employees":13.0,"founded_year":1999.0,"total_money_raised":3000000,"offices":{"description":null,"address1":"1633 Westlake Ave N","address2":"Suite 100","zip_code":"98119","city":"Seattle","state_code":"WA","country_code":"USA","latitude":47.634741,"longitude":-122.340435},"city":"Seattle","place":{"type":"Point","coordinates":[-122.340435,47.634741]},"result":"success","latitude":47.634741,"longitude":-122.340435,"Last_Digit":"M","First_Digit":"3"},{"_id":"52cdef7c4bab8bd6752987d5","name":"Mojiva","category_code":"mobile","number_of_employees":105.0,"founded_year":2008.0,"total_money_raised":45800000,"offices":{"description":"","address1":"","address2":"","zip_code":"","city":"Seattle","state_code":"WA","country_code":"USA","latitude":null,"longitude":null},"city":"Seattle","place":null,"result":"No office","latitude":"No coordinates","longitude":"No coordinates","Last_Digit":"M","First_Digit":"4"},{"_id":"52cdef7c4bab8bd67529887c","name":"TeachStreet","category_code":"web","number_of_employees":8.0,"founded_year":2007.0,"total_money_raised":3450000,"offices":{"description":"","address1":"","address2":"","zip_code":"","city":"Seattle","state_code":"WA","country_code":"USA","latitude":47.6171788,"longitude":-122.3370801},"city":"Seattle","place":{"type":"Point","coordinates":[-122.3370801,47.6171788]},"result":"success","latitude":47.6171788,"longitude":-122.3370801,"Last_Digit":"M","First_Digit":"3"},{"_id":"52cdef7d4bab8bd67529899c","name":"Blue Nile","category_code":"web","number_of_employees":null,"founded_year":1999.0,"total_money_raised":49000000,"offices":{"description":"Headquarters","address1":"411 1st Avenue S","address2":"Suite 700","zip_code":"98104","city":"Seattle","state_code":"WA","country_code":"USA","latitude":null,"longitude":null},"city":"Seattle","place":null,"result":"No office","latitude":"No coordinates","longitude":"No coordinates","Last_Digit":"M","First_Digit":"4"},{"_id":"52cdef7d4bab8bd675298c2a","name":"M:Metrics","category_code":"mobile","number_of_employees":null,"founded_year":2004.0,"total_money_raised":18000000,"offices":{"description":null,"address1":"","address2":"","zip_code":"","city":"Seattle","state_code":"WA","country_code":"USA","latitude":47.620716,"longitude":-122.347533},"city":"Seattle","place":{"type":"Point","coordinates":[-122.347533,47.620716]},"result":"success","latitude":47.620716,"longitude":-122.347533,"Last_Digit":"M","First_Digit":"1"},{"_id":"52cdef7d4bab8bd675298e3d","name":"Trusera","category_code":"web","number_of_employees":15.0,"founded_year":2007.0,"total_money_raised":2000000,"offices":{"description":"","address1":"2011 East Olive","address2":"","zip_code":"98122","city":"Seattle","state_code":"WA","country_code":"USA","latitude":47.617122,"longitude":-122.305994},"city":"Seattle","place":{"type":"Point","coordinates":[-122.305994,47.617122]},"result":"success","latitude":47.617122,"longitude":-122.305994,"Last_Digit":"M","First_Digit":"2"},{"_id":"52cdef7d4bab8bd675298e9c","name":"Bevy","category_code":"web","number_of_employees":5.0,"founded_year":2007.0,"total_money_raised":1200000,"offices":{"description":"Seattle Office","address1":"1000 Second Ave","address2":"Suite 3700","zip_code":"98104","city":"Seattle","state_code":"WA","country_code":"USA","latitude":null,"longitude":null},"city":"Seattle","place":null,"result":"No office","latitude":"No coordinates","longitude":"No coordinates","Last_Digit":"M","First_Digit":"1"},{"_id":"52cdef7d4bab8bd675298fe4","name":"thePlatform","category_code":"web","number_of_employees":130.0,"founded_year":2000.0,"total_money_raised":8000000,"offices":{"description":"Corporate Headquarters","address1":"1000 2nd Avenue","address2":"Suite 1000","zip_code":"98104","city":"Seattle","state_code":"WA","country_code":"USA","latitude":47.617838,"longitude":-122.356027},"city":"Seattle","place":{"type":"Point","coordinates":[-122.356027,47.617838]},"result":"success","latitude":47.617838,"longitude":-122.356027,"Last_Digit":"M","First_Digit":"8"},{"_id":"52cdef7d4bab8bd67529942a","name":"Local Marketers","category_code":"web","number_of_employees":null,"founded_year":2005.0,"total_money_raised":4099999,"offices":{"description":"","address1":"419 Occidental Avenue South","address2":"Suite 608","zip_code":"98104","city":"Seattle","state_code":"WA","country_code":"USA","latitude":47.5989681,"longitude":-122.3329036},"city":"Seattle","place":{"type":"Point","coordinates":[-122.3329036,47.5989681]},"result":"success","latitude":47.5989681,"longitude":-122.3329036,"Last_Digit":"M","First_Digit":"4"},{"_id":"52cdef7d4bab8bd6752995af","name":"Varolii","category_code":"software","number_of_employees":null,"founded_year":1999.0,"total_money_raised":11000000,"offices":{"description":"HQ","address1":"821 Second Avenue","address2":"Suite 1000","zip_code":"98104","city":"Seattle","state_code":"WA","country_code":"USA","latitude":47.604242,"longitude":-122.334448},"city":"Seattle","place":{"type":"Point","coordinates":[-122.334448,47.604242]},"result":"success","latitude":47.604242,"longitude":-122.334448,"Last_Digit":"M","First_Digit":"1"},{"_id":"52cdef7d4bab8bd675299710","name":"Swype","category_code":"software","number_of_employees":80.0,"founded_year":2002.0,"total_money_raised":13900000,"offices":{"description":"HQ","address1":"71 Columbia Street","address2":"","zip_code":"98104","city":"Seattle","state_code":"WA","country_code":"USA","latitude":47.6495905,"longitude":-122.3497956},"city":"Seattle","place":{"type":"Point","coordinates":[-122.3497956,47.6495905]},"result":"success","latitude":47.6495905,"longitude":-122.3497956,"Last_Digit":"M","First_Digit":"1"},{"_id":"52cdef7d4bab8bd675299939","name":"Varolii","category_code":"software","number_of_employees":null,"founded_year":1999.0,"total_money_raised":11000000,"offices":{"description":"HQ","address1":"821 Second Avenue","address2":"Suite 1000","zip_code":"98104","city":"Seattle","state_code":"WA","country_code":"USA","latitude":47.604242,"longitude":-122.334448},"city":"Seattle","place":{"type":"Point","coordinates":[-122.334448,47.604242]},"result":"success","latitude":47.604242,"longitude":-122.334448,"Last_Digit":"M","First_Digit":"1"},{"_id":"52cdef7d4bab8bd675299a9a","name":"Swype","category_code":"software","number_of_employees":80.0,"founded_year":2002.0,"total_money_raised":13900000,"offices":{"description":"HQ","address1":"71 Columbia Street","address2":"","zip_code":"98104","city":"Seattle","state_code":"WA","country_code":"USA","latitude":47.6495905,"longitude":-122.3497956},"city":"Seattle","place":{"type":"Point","coordinates":[-122.3497956,47.6495905]},"result":"success","latitude":47.6495905,"longitude":-122.3497956,"Last_Digit":"M","First_Digit":"1"},{"_id":"52cdef7d4bab8bd675299d5d","name":"Groupon","category_code":"web","number_of_employees":10000.0,"founded_year":2008.0,"total_money_raised":1150000000,"offices":{"description":"Seattle Office","address1":"505 5th Avenue South","address2":"Suite 615","zip_code":"98104","city":"Seattle","state_code":"WA","country_code":"USA","latitude":null,"longitude":null},"city":"Seattle","place":null,"result":"No office","latitude":"No coordinates","longitude":"No coordinates","Last_Digit":"B","First_Digit":"1"},{"_id":"52cdef7e4bab8bd67529a3f1","name":"Attenex","category_code":"software","number_of_employees":null,"founded_year":2000.0,"total_money_raised":5000000,"offices":{"description":"HQ","address1":"925 Fourth Avenue","address2":"Suite 1700","zip_code":"98104-1125","city":"Seattle","state_code":"WA","country_code":"USA","latitude":null,"longitude":null},"city":"Seattle","place":null,"result":"No office","latitude":"No coordinates","longitude":"No coordinates","Last_Digit":"M","First_Digit":"5"},{"_id":"52cdef7e4bab8bd67529a6a6","name":"Tableau Software","category_code":"software","number_of_employees":92.0,"founded_year":2003.0,"total_money_raised":15000000,"offices":{"description":"Worldwide Headquarters","address1":"837 North 34th Street","address2":"Suite 400","zip_code":"98103","city":"Seattle","state_code":"WA","country_code":"USA","latitude":47.6504518,"longitude":-122.3545086},"city":"Seattle","place":{"type":"Point","coordinates":[-122.3545086,47.6504518]},"result":"success","latitude":47.6504518,"longitude":-122.3545086,"Last_Digit":"M","First_Digit":"1"},{"_id":"52cdef7e4bab8bd67529a8f3","name":"IMedExchange","category_code":"web","number_of_employees":null,"founded_year":2007.0,"total_money_raised":2620000,"offices":{"description":"Headquarters","address1":"600 Stewart St","address2":"Suite 1400","zip_code":"98101","city":"Seattle","state_code":"WA","country_code":"USA","latitude":47.6136485,"longitude":-122.3371174},"city":"Seattle","place":{"type":"Point","coordinates":[-122.3371174,47.6136485]},"result":"success","latitude":47.6136485,"longitude":-122.3371174,"Last_Digit":"M","First_Digit":"2"},{"_id":"52cdef7e4bab8bd67529aa27","name":"Spring Mobile Solutions","category_code":"mobile","number_of_employees":null,"founded_year":2001.0,"total_money_raised":101000000,"offices":{"description":"NORTH AMERICA","address1":"2505 2nd Avenue","address2":"","zip_code":"98121","city":"Seattle","state_code":"WA","country_code":"USA","latitude":47.6154389,"longitude":-122.3479567},"city":"Seattle","place":{"type":"Point","coordinates":[-122.3479567,47.6154389]},"result":"success","latitude":47.6154389,"longitude":-122.3479567,"Last_Digit":"M","First_Digit":"1"},{"_id":"52cdef7e4bab8bd67529ad88","name":"ActiveRain","category_code":"web","number_of_employees":null,"founded_year":2006.0,"total_money_raised":2750000,"offices":{"description":"Weber Thompson Building","address1":"225 Terry Ave North","address2":"101","zip_code":"98109","city":"Seattle","state_code":"WA","country_code":"USA","latitude":null,"longitude":null},"city":"Seattle","place":null,"result":"No office","latitude":"No coordinates","longitude":"No coordinates","Last_Digit":"M","First_Digit":"2"},{"_id":"52cdef7e4bab8bd67529adb3","name":"Good Technology","category_code":"mobile","number_of_employees":800.0,"founded_year":1996.0,"total_money_raised":271000000,"offices":{"description":"","address1":"200 West Mercer Street","address2":"Suite 209","zip_code":"98119","city":"Seattle","state_code":"WA","country_code":"USA","latitude":47.6246175,"longitude":-122.35931},"city":"Seattle","place":{"type":"Point","coordinates":[-122.35931,47.6246175]},"result":"success","latitude":47.6246175,"longitude":-122.35931,"Last_Digit":"M","First_Digit":"2"},{"_id":"52cdef7e4bab8bd67529ae08","name":"SynapticMash","category_code":"software","number_of_employees":null,"founded_year":null,"total_money_raised":5890000,"offices":{"description":"","address1":"1511 3rd Ave.,","address2":"Suite 808","zip_code":"98101","city":"Seattle","state_code":"WA","country_code":"USA","latitude":47.6098932,"longitude":-122.3379255},"city":"Seattle","place":{"type":"Point","coordinates":[-122.3379255,47.6098932]},"result":"success","latitude":47.6098932,"longitude":-122.3379255,"Last_Digit":"M","First_Digit":"5"},{"_id":"52cdef7e4bab8bd67529aee6","name":"OnRequest Images","category_code":"software","number_of_employees":null,"founded_year":2002.0,"total_money_raised":27000000,"offices":{"description":"Headquarters","address1":"1415 Western Avenue","address2":"Suite 300","zip_code":"98101","city":"Seattle","state_code":"WA","country_code":"USA","latitude":47.6075374,"longitude":-122.3403478},"city":"Seattle","place":{"type":"Point","coordinates":[-122.3403478,47.6075374]},"result":"success","latitude":47.6075374,"longitude":-122.3403478,"Last_Digit":"M","First_Digit":"2"},{"_id":"52cdef7e4bab8bd67529af2c","name":"Medio","category_code":"software","number_of_employees":90.0,"founded_year":2004.0,"total_money_raised":30000000,"offices":{"description":"","address1":"One Convention Place","address2":"701 Pike Street, 15th Floor","zip_code":"98101","city":"Seattle","state_code":"WA","country_code":"USA","latitude":47.611827,"longitude":-122.331308},"city":"Seattle","place":{"type":"Point","coordinates":[-122.331308,47.611827]},"result":"success","latitude":47.611827,"longitude":-122.331308,"Last_Digit":"M","First_Digit":"3"},{"_id":"52cdef7e4bab8bd67529b1d7","name":"L4 Mobile","category_code":"mobile","number_of_employees":25.0,"founded_year":2008.0,"total_money_raised":4800000,"offices":{"description":"L4 Mobile","address1":"1818 Westlake Ave. N,","address2":"Suite #424","zip_code":"98109","city":"Seattle","state_code":"WA","country_code":"USA","latitude":47.676762,"longitude":-122.2049192},"city":"Seattle","place":{"type":"Point","coordinates":[-122.2049192,47.676762]},"result":"success","latitude":47.676762,"longitude":-122.2049192,"Last_Digit":"M","First_Digit":"4"},{"_id":"52cdef7e4bab8bd67529b2b0","name":"Optify","category_code":"software","number_of_employees":45.0,"founded_year":2008.0,"total_money_raised":10800000,"offices":{"description":"Optify HQ","address1":"710 2nd Avenue","address2":"Suite 840","zip_code":"98104","city":"Seattle","state_code":"WA","country_code":"USA","latitude":47.603364,"longitude":-122.333359},"city":"Seattle","place":{"type":"Point","coordinates":[-122.333359,47.603364]},"result":"success","latitude":47.603364,"longitude":-122.333359,"Last_Digit":"M","First_Digit":"1"},{"_id":"52cdef7e4bab8bd67529b513","name":"Tamarac","category_code":"software","number_of_employees":null,"founded_year":2000.0,"total_money_raised":1670000,"offices":{"description":"HQ","address1":"811 First Avenue","address2":"","zip_code":"98104","city":"Seattle","state_code":"WA","country_code":"USA","latitude":null,"longitude":null},"city":"Seattle","place":null,"result":"No office","latitude":"No coordinates","longitude":"No coordinates","Last_Digit":"M","First_Digit":"1"},{"_id":"52cdef7e4bab8bd67529b52e","name":"Z2Live","category_code":"games_video","number_of_employees":130.0,"founded_year":2009.0,"total_money_raised":6500000,"offices":{"description":"Z2Live","address1":"1601 2nd Ave","address2":"Suite 800","zip_code":"98101","city":"Seattle","state_code":"WA","country_code":"USA","latitude":47.6103008,"longitude":-122.3399782},"city":"Seattle","place":{"type":"Point","coordinates":[-122.3399782,47.6103008]},"result":"success","latitude":47.6103008,"longitude":-122.3399782,"Last_Digit":"M","First_Digit":"6"},{"_id":"52cdef7e4bab8bd67529b64f","name":"Adapx","category_code":"software","number_of_employees":null,"founded_year":1999.0,"total_money_raised":30000000,"offices":{"description":"HQ","address1":"2200 Alaskan Way","address2":"Suite 130","zip_code":"98121","city":"Seattle","state_code":"WA","country_code":"USA","latitude":47.603873,"longitude":-122.3339579},"city":"Seattle","place":{"type":"Point","coordinates":[-122.3339579,47.603873]},"result":"success","latitude":47.603873,"longitude":-122.3339579,"Last_Digit":"M","First_Digit":"3"},{"_id":"52cdef7e4bab8bd67529b9a4","name":"Gist","category_code":"web","number_of_employees":null,"founded_year":null,"total_money_raised":10800000,"offices":{"description":"","address1":"419 Occidental Ave S","address2":"Suite 608","zip_code":"98104","city":"Seattle","state_code":"WA","country_code":"USA","latitude":47.6008183,"longitude":-122.334117},"city":"Seattle","place":{"type":"Point","coordinates":[-122.334117,47.6008183]},"result":"success","latitude":47.6008183,"longitude":-122.334117,"Last_Digit":"M","First_Digit":"1"},{"_id":"52cdef7f4bab8bd67529c3b6","name":"PopCap Games","category_code":"games_video","number_of_employees":null,"founded_year":2000.0,"total_money_raised":22500000,"offices":{"description":"","address1":"2401 4th Ave","address2":"Suite 810","zip_code":"98121","city":"Seattle","state_code":"WA","country_code":"USA","latitude":47.6161693,"longitude":-122.3451897},"city":"Seattle","place":{"type":"Point","coordinates":[-122.3451897,47.6161693]},"result":"success","latitude":47.6161693,"longitude":-122.3451897,"Last_Digit":"M","First_Digit":"2"},{"_id":"52cdef7f4bab8bd67529c6ab","name":"Vigilos","category_code":"software","number_of_employees":null,"founded_year":2000.0,"total_money_raised":7400000,"offices":{"description":"Headquarters","address1":"2030 First Avenue, Ste 300","address2":"","zip_code":"98121","city":"Seattle","state_code":"WA","country_code":"USA","latitude":47.6113314,"longitude":-122.3430581},"city":"Seattle","place":{"type":"Point","coordinates":[-122.3430581,47.6113314]},"result":"success","latitude":47.6113314,"longitude":-122.3430581,"Last_Digit":"M","First_Digit":"7"}]